{"fanueil_hall": {"lat": 42.360224, "lng": -71.054714, "label": "Fanueil Hall Marketplace"}, "museum_of_science": {"lat": 42.367531, "lng": -71.071261, "label": "Museum of Science"}, "old_north_church": {"lat": 42.36633, "lng": -71.054399, "label": "Old North Church"}, "arnold_arboretum": {"lat": 42.298792, "lng": -71.12525, "label": "Arnold Arboretum"}, "mikes_pastry": {"lat": 42.364258, "lng": -71.054302, "label": "Mike's Pastry"}, "spy_pond": {"lat": 42.407462, "lng": -71.155889, "label": "Spy Pond"}, "prudential_tower": {"lat": 42.347621, "lng": -71.082615, "label": "Prudential Tower"}, "paul_revere_house": {"lat": 42.363745, "lng": -71.053696, "label": "Paul Revere House"}, "brown_sugar_cafe": {"lat": 42.352299, "lng": -71.121853, "label": "Brown Sugar Cafe"}, "newbury_st": {"lat": 42.349323, "lng": -71.083673, "label": "Newbury Street"}}